[
  {
    "id": "1",
    "name": "Golden Temple (Harmandir Sahib)",
    "lat": 31.62,
    "lng": 74.8765,
    "capacity": 10000,
    "crowdCount": 4037,
    "crowdLevel": "medium",
    "region": "North India",
    "state": "Punjab",
    "image": "https://images.unsplash.com/photo-1707060690751-12c69db4f474?w=1080",
    "category": "temple",
    "rating": 4.9,
    "waitingTime": 45,
    "bestTime": "4:00 AM - 6:00 AM",
    "description": "Most sacred Sikh shrine with stunning golden architecture"
  },
  {
    "id": "2",
    "name": "Taj Mahal",
    "lat": 27.1751,
    "lng": 78.0421,
    "capacity": 20000,
    "crowdCount": 5651,
    "crowdLevel": "low",
    "region": "North India",
    "state": "Uttar Pradesh",
    "image": "https://images.unsplash.com/photo-1564507592333-c60657eea523?w=1080",
    "category": "museum",
    "rating": 4.9,
    "waitingTime": 60,
    "bestTime": "6:00 AM - 8:00 AM",
    "description": "Iconic marble monument and UNESCO World Heritage Site"
  },
  {
    "id": "3",
    "name": "Vaishno Devi Temple",
    "lat": 33.0308,
    "lng": 74.949,
    "capacity": 15000,
    "crowdCount": 5896,
    "crowdLevel": "medium",
    "region": "North India",
    "state": "Jammu & Kashmir",
    "image": "https://images.unsplash.com/photo-1582510003544-4d00b7f74220?w=1080",
    "category": "temple",
    "rating": 4.8,
    "waitingTime": 90,
    "bestTime": "5:00 AM - 7:00 AM",
    "description": "Holy Hindu temple dedicated to Goddess Vaishno Devi"
  },
  {
    "id": "4",
    "name": "Kashi Vishwanath Temple",
    "lat": 25.3109,
    "lng": 83.0107,
    "capacity": 12000,
    "crowdCount": 4199,
    "crowdLevel": "low",
    "region": "North India",
    "state": "Uttar Pradesh",
    "image": "https://images.unsplash.com/photo-1605649487212-47bdab064df7?w=1080",
    "category": "temple",
    "rating": 4.8,
    "waitingTime": 75,
    "bestTime": "4:00 AM - 6:00 AM",
    "description": "Ancient Shiva temple on the banks of Ganges in Varanasi"
  },
  {
    "id": "5",
    "name": "Red Fort (Lal Qila)",
    "lat": 28.6562,
    "lng": 77.241,
    "capacity": 8000,
    "crowdCount": 3065,
    "crowdLevel": "medium",
    "region": "North India",
    "state": "Delhi",
    "image": "https://images.unsplash.com/photo-1597074866923-dc0589150f8f?w=1080",
    "category": "museum",
    "rating": 4.6,
    "waitingTime": 30,
    "bestTime": "9:00 AM - 11:00 AM",
    "description": "Historic Mughal fort and UNESCO World Heritage Site"
  },
  {
    "id": "6",
    "name": "Qutub Minar",
    "lat": 28.5244,
    "lng": 77.1855,
    "capacity": 3000,
    "crowdCount": 1338,
    "crowdLevel": "medium",
    "region": "North India",
    "state": "Delhi",
    "image": "https://images.unsplash.com/photo-1587474260584-136574528ed5?w=1080",
    "category": "museum",
    "rating": 4.5,
    "waitingTime": 10,
    "bestTime": "Anytime",
    "description": "Tallest brick minaret in the world"
  },
  {
    "id": "7",
    "name": "Tirupati Balaji Temple",
    "lat": 13.6833,
    "lng": 79.3472,
    "capacity": 30000,
    "crowdCount": 13193,
    "crowdLevel": "medium",
    "region": "South India",
    "state": "Andhra Pradesh",
    "image": "https://images.unsplash.com/photo-1609920658906-8223710f068f?w=1080",
    "category": "temple",
    "rating": 4.9,
    "waitingTime": 120,
    "bestTime": "3:00 AM - 5:00 AM",
    "description": "Richest and most visited Hindu temple in the world"
  },
  {
    "id": "8",
    "name": "Meenakshi Amman Temple",
    "lat": 9.9195,
    "lng": 78.1193,
    "capacity": 10000,
    "crowdCount": 3864,
    "crowdLevel": "medium",
    "region": "South India",
    "state": "Tamil Nadu",
    "image": "https://images.unsplash.com/photo-1588421357574-87938a86fa28?w=1080",
    "category": "temple",
    "rating": 4.8,
    "waitingTime": 35,
    "bestTime": "6:00 AM - 9:00 AM",
    "description": "Historic temple with stunning Dravidian architecture"
  },
  {
    "id": "9",
    "name": "Padmanabhaswamy Temple",
    "lat": 8.4829,
    "lng": 76.9469,
    "capacity": 6000,
    "crowdCount": 2174,
    "crowdLevel": "medium",
    "region": "South India",
    "state": "Kerala",
    "image": "https://images.unsplash.com/photo-1582510003544-4d00b7f74220?w=1080",
    "category": "temple",
    "rating": 4.7,
    "waitingTime": 25,
    "bestTime": "5:30 AM - 8:00 AM",
    "description": "Ancient Vishnu temple with intricate architecture"
  },
  {
    "id": "10",
    "name": "Hampi Monuments",
    "lat": 15.335,
    "lng": 76.46,
    "capacity": 5000,
    "crowdCount": 1672,
    "crowdLevel": "low",
    "region": "South India",
    "state": "Karnataka",
    "image": "https://images.unsplash.com/photo-1600100397608-ddfce4ca84a9?w=1080",
    "category": "museum",
    "rating": 4.7,
    "waitingTime": 5,
    "bestTime": "Early morning",
    "description": "UNESCO World Heritage Site with ancient Vijayanagara ruins"
  },
  {
    "id": "11",
    "name": "Mysore Palace",
    "lat": 12.3052,
    "lng": 76.6552,
    "capacity": 8000,
    "crowdCount": 2890,
    "crowdLevel": "medium",
    "region": "South India",
    "state": "Karnataka",
    "image": "https://images.unsplash.com/photo-1603262110263-fb0112e7cc33?w=1080",
    "category": "museum",
    "rating": 4.6,
    "waitingTime": 25,
    "bestTime": "10:00 AM - 12:00 PM",
    "description": "Magnificent royal palace with Indo-Saracenic architecture"
  },
  {
    "id": "12",
    "name": "Gateway of India",
    "lat": 18.9219,
    "lng": 72.8347,
    "capacity": 15000,
    "crowdCount": 6173,
    "crowdLevel": "medium",
    "region": "West India",
    "state": "Maharashtra",
    "image": "https://images.unsplash.com/photo-1595658658481-d53d3f999875?w=1080",
    "category": "museum",
    "rating": 4.5,
    "waitingTime": 15,
    "bestTime": "Early morning or evening",
    "description": "Iconic arch monument overlooking the Arabian Sea"
  },
  {
    "id": "13",
    "name": "Ajanta Caves",
    "lat": 20.5519,
    "lng": 75.7033,
    "capacity": 4000,
    "crowdCount": 1353,
    "crowdLevel": "low",
    "region": "West India",
    "state": "Maharashtra",
    "image": "https://images.unsplash.com/photo-1590766940554-634f9a0d91f5?w=1080",
    "category": "museum",
    "rating": 4.8,
    "waitingTime": 20,
    "bestTime": "9:00 AM - 11:00 AM",
    "description": "Ancient Buddhist cave paintings and sculptures"
  },
  {
    "id": "14",
    "name": "Gir National Park",
    "lat": 21.1243,
    "lng": 70.8242,
    "capacity": 2000,
    "crowdCount": 852,
    "crowdLevel": "medium",
    "region": "West India",
    "state": "Gujarat",
    "image": "https://images.unsplash.com/photo-1456926631375-92c8ce872def?w=1080",
    "category": "nature",
    "rating": 4.7,
    "waitingTime": 0,
    "bestTime": "Early morning safari",
    "description": "Home to Asiatic lions and diverse wildlife"
  },
  {
    "id": "15",
    "name": "Rann of Kutch",
    "lat": 23.7333,
    "lng": 69.8597,
    "capacity": 10000,
    "crowdCount": 4377,
    "crowdLevel": "medium",
    "region": "West India",
    "state": "Gujarat",
    "image": "https://images.unsplash.com/photo-1609947017136-9daf32a01504?w=1080",
    "category": "nature",
    "rating": 4.6,
    "waitingTime": 0,
    "bestTime": "Full moon nights",
    "description": "Stunning white salt desert landscape"
  },
  {
    "id": "16",
    "name": "Sundarbans",
    "lat": 21.9497,
    "lng": 89.1833,
    "capacity": 3000,
    "crowdCount": 1118,
    "crowdLevel": "medium",
    "region": "East India",
    "state": "West Bengal",
    "image": "https://images.unsplash.com/photo-1585409677983-0f6c41ca9c3b?w=1080",
    "category": "nature",
    "rating": 4.5,
    "waitingTime": 0,
    "bestTime": "Winter months",
    "description": "Largest mangrove forest, home to Royal Bengal Tigers"
  },
  {
    "id": "17",
    "name": "Konark Sun Temple",
    "lat": 19.8876,
    "lng": 86.0945,
    "capacity": 5000,
    "crowdCount": 2186,
    "crowdLevel": "medium",
    "region": "East India",
    "state": "Odisha",
    "image": "https://images.unsplash.com/photo-1621427500177-0f2ee0e45628?w=1080",
    "category": "temple",
    "rating": 4.7,
    "waitingTime": 15,
    "bestTime": "Early morning",
    "description": "13th-century temple shaped like a giant chariot"
  },
  {
    "id": "18",
    "name": "Kaziranga National Park",
    "lat": 26.5775,
    "lng": 93.1711,
    "capacity": 2500,
    "crowdCount": 870,
    "crowdLevel": "low",
    "region": "East India",
    "state": "Assam",
    "image": "https://images.unsplash.com/photo-1544716278-ca5e3f4abd8c?w=1080",
    "category": "nature",
    "rating": 4.8,
    "waitingTime": 0,
    "bestTime": "Morning safari",
    "description": "UNESCO site famous for one-horned rhinoceros"
  },
  {
    "id": "19",
    "name": "Kerala Backwaters",
    "lat": 9.4981,
    "lng": 76.3388,
    "capacity": 2000,
    "crowdCount": 897,
    "crowdLevel": "medium",
    "region": "South India",
    "state": "Kerala",
    "image": "https://images.unsplash.com/photo-1602216056096-3b40cc0c9944?w=1080",
    "category": "nature",
    "rating": 4.8,
    "waitingTime": 0,
    "bestTime": "September to March",
    "description": "Serene network of lagoons and lakes"
  },
  {
    "id": "20",
    "name": "Jaipur City Palace",
    "lat": 26.9258,
    "lng": 75.8236,
    "capacity": 6000,
    "crowdCount": 1744,
    "crowdLevel": "low",
    "region": "North India",
    "state": "Rajasthan",
    "image": "https://images.unsplash.com/photo-1599661046289-e31897846e41?w=1080",
    "category": "museum",
    "rating": 4.6,
    "waitingTime": 20,
    "bestTime": "Morning hours",
    "description": "Royal palace blending Rajasthani and Mughal architecture"
  },
  {
    "id": "21",
    "name": "Hawa Mahal",
    "lat": 26.9239,
    "lng": 75.8267,
    "capacity": 3000,
    "crowdCount": 1240,
    "crowdLevel": "medium",
    "region": "North India",
    "state": "Rajasthan",
    "image": "https://images.unsplash.com/photo-1477587458883-47145ed94245?w=1080",
    "category": "museum",
    "rating": 4.5,
    "waitingTime": 15,
    "bestTime": "Early morning",
    "description": "Iconic pink sandstone palace with 953 windows"
  },
  {
    "id": "22",
    "name": "Jim Corbett National Park",
    "lat": 29.53,
    "lng": 78.7747,
    "capacity": 1500,
    "crowdCount": 616,
    "crowdLevel": "medium",
    "region": "North India",
    "state": "Uttarakhand",
    "image": "https://images.unsplash.com/photo-1549366021-9f761d450615?w=1080",
    "category": "nature",
    "rating": 4.7,
    "waitingTime": 0,
    "bestTime": "Early morning safari",
    "description": "India's oldest national park, famous for Bengal tigers"
  },
  {
    "id": "23",
    "name": "Lodi Garden",
    "lat": 28.5933,
    "lng": 77.2197,
    "capacity": 5000,
    "crowdCount": 1879,
    "crowdLevel": "medium",
    "region": "North India",
    "state": "Delhi",
    "image": "https://images.unsplash.com/photo-1590579491624-f98f36d4c763?w=1080",
    "category": "park",
    "rating": 4.4,
    "waitingTime": 0,
    "bestTime": "Morning or evening",
    "description": "Beautiful park with 15th-century Mughal tombs"
  },
  {
    "id": "24",
    "name": "Cubbon Park",
    "lat": 12.9766,
    "lng": 77.5913,
    "capacity": 8000,
    "crowdCount": 3299,
    "crowdLevel": "medium",
    "region": "South India",
    "state": "Karnataka",
    "image": "https://images.unsplash.com/photo-1519331379826-f10be5486c6f?w=1080",
    "category": "park",
    "rating": 4.3,
    "waitingTime": 0,
    "bestTime": "Morning hours",
    "description": "Green oasis in the heart of Bangalore"
  }
]